timestamp,depth,depth_beneath_rov,pitch,roll,vertical_acceleration,yaw,temperature,pressure,wing_pos_sb,wing_pos_port,latitude,longitude,speed
1620474607.024862,0.41,-1.0,3.93,2.55,10.35,23.21,9.2,1054.1,0.0,0.0,62.10165,6.896448333333332,0.92
1620474607.1196144,0.41,-1.0,3.93,2.62,10.31,26.12,9.2,1054.1,0.0,0.0,62.10165,6.896448333333332,0.92
1620474607.215958,0.4,-1.0,3.52,2.62,10.31,26.12,9.2,1054.1,0.0,0.0,62.10165,6.896448333333332,0.92
1620474607.3246667,0.4,-1.0,3.52,2.66,10.27,28.57,9.2,1054.1,0.0,0.0,62.10165,6.896448333333332,0.92
1620474607.418573,0.4,-1.0,3.52,2.66,10.27,28.57,9.2,1053.8,0.0,0.0,62.10165,6.896448333333332,0.92
1620474607.5303543,0.4,-1.0,3.25,2.75,10.24,28.57,9.2,1053.8,0.0,0.0,62.101651666666676,6.896455,0.92
1620474607.641211,0.4,-1.0,3.25,2.75,10.24,30.41,9.2,1053.8,0.0,0.0,62.101651666666676,6.896455,0.85
1620474607.7328768,0.4,-1.0,3.02,2.83,10.21,30.41,9.2,1053.8,0.0,0.0,62.101651666666676,6.896455,0.85
1620474607.841824,0.41,-1.0,3.02,2.83,10.21,31.63,9.2,1054.6,0.0,0.0,62.101651666666676,6.896455,0.85
1620474607.949595,0.41,-1.0,2.86,2.87,10.19,31.63,9.2,1054.6,0.0,0.0,62.101651666666676,6.896455,0.85
1620474608.0588913,0.41,-1.0,2.86,2.87,10.19,32.56,9.2,1054.6,0.0,0.0,62.101653333333324,6.89646,0.86
1620474608.168634,0.41,-1.0,2.78,2.89,10.18,32.56,9.2,1054.6,0.0,0.0,62.101653333333324,6.89646,0.86
1620474608.2779145,0.41,-1.0,2.78,2.89,10.18,33.35,9.2,1054.6,0.0,0.0,62.101653333333324,6.89646,0.86
1620474608.3708832,0.41,-1.0,2.73,2.97,10.18,33.35,9.2,1054.6,0.0,0.0,62.101653333333324,6.89646,0.86
1620474608.4651864,0.41,-1.0,2.73,2.97,10.16,33.82,9.2,1054.6,0.0,0.0,62.101653333333324,6.89646,0.86
1620474608.573569,0.41,-1.0,2.65,3.01,10.16,33.82,9.2,1054.6,0.0,0.0,62.101653333333324,6.89646,0.86
1620474608.6824539,0.41,-1.0,2.65,3.01,10.15,34.28,9.2,1052.9,0.0,0.0,62.101653333333324,6.89646,0.86
1620474608.7914712,0.4,-1.0,2.55,3.01,10.15,34.28,9.2,1052.9,0.0,0.0,62.101653333333324,6.89646,0.86
1620474608.8845482,0.4,-1.0,2.55,2.98,10.13,34.85,9.2,1052.9,0.0,0.0,62.101653333333324,6.89646,0.86
1620474608.993409,0.4,-1.0,2.47,2.98,10.13,34.85,9.2,1052.9,0.0,0.0,62.101653333333324,6.89646,0.86
1620474609.1011608,0.4,-1.0,2.47,2.94,10.12,35.09,9.2,1052.9,0.0,0.0,62.101653333333324,6.89646,0.86
1620474609.19502,0.41,-1.0,2.47,2.94,10.12,35.09,9.2,1054.4,0.0,0.0,62.101653333333324,6.896466666666667,0.86
1620474609.287771,0.41,-1.0,2.44,3.0,10.11,35.09,9.2,1054.4,0.0,0.0,62.101653333333324,6.896466666666667,0.86
1620474609.3835251,0.41,-1.0,2.44,3.0,10.11,35.6,9.2,1054.4,0.0,0.0,62.101653333333324,6.896466666666667,0.86
1620474609.4909217,0.41,-1.0,2.44,3.0,10.11,35.6,9.2,1054.4,0.0,0.0,62.101653333333324,6.896466666666667,0.86
1620474609.5994954,0.41,-1.0,2.44,3.06,10.11,35.6,9.2,1054.4,0.0,0.0,62.101653333333324,6.896466666666667,0.86
1620474609.6938517,0.42,-1.0,2.44,3.06,10.11,35.7,9.2,1054.9,0.0,0.0,62.101653333333324,6.896466666666667,0.83
1620474609.8021793,0.42,-1.0,2.41,3.06,10.11,35.7,9.2,1054.9,0.0,0.0,62.101653333333324,6.896466666666667,0.83
1620474609.911151,0.42,-1.0,2.41,3.03,10.1,35.52,9.2,1054.9,0.0,0.0,62.101653333333324,6.896466666666667,0.83
1620474610.002907,0.41,-1.0,2.41,3.03,10.1,35.52,9.1,1054.9,0.0,0.0,62.101653333333324,6.896466666666667,0.83
1620474610.1136093,0.41,-1.0,2.47,3.07,10.1,35.52,9.1,1054.9,0.0,0.0,62.101655,6.896473333333334,0.86
1620474610.206922,0.4,-1.0,2.47,3.07,10.1,34.84,9.1,1053.8,0.0,0.0,62.101655,6.896473333333334,0.86
1620474610.3170185,0.4,-1.0,2.58,3.07,10.1,34.84,9.1,1053.8,0.0,0.0,62.101655,6.896473333333334,0.86
1620474610.425339,0.4,-1.0,2.58,3.15,10.12,33.62,9.1,1053.8,0.0,0.0,62.101655,6.896473333333334,0.86
1620474610.518191,0.41,-1.0,2.58,3.15,10.12,33.62,9.1,1053.8,0.0,0.0,62.101655,6.896473333333334,0.86
1620474610.6279023,0.41,-1.0,2.68,3.15,10.13,33.62,9.1,1053.8,0.0,0.0,62.101655,6.896473333333334,0.86
1620474610.733615,0.42,-1.0,2.68,3.15,10.13,32.59,9.1,1055.6,0.0,0.0,62.101655,6.896473333333334,0.86
1620474610.8473105,0.42,-1.0,2.68,3.15,10.13,32.59,9.1,1055.6,0.0,0.0,62.101655,6.896473333333334,0.86
1620474610.9536343,0.42,-1.0,2.85,3.11,10.15,32.59,9.1,1055.6,0.0,0.0,62.101655,6.896473333333334,0.86
1620474611.062343,0.43,-1.0,2.85,3.11,10.15,31.14,9.1,1055.6,0.0,0.0,62.101655,6.896473333333334,0.86
1620474611.1730397,0.43,-1.0,3.02,3.11,10.15,31.14,9.1,1055.6,0.0,0.0,62.101655,6.896473333333334,0.86
1620474611.2813284,0.43,-1.0,3.02,3.13,10.16,29.28,9.1,1055.6,0.0,0.0,62.101655,6.896473333333334,0.86
1620474611.3911035,0.44,-1.0,3.02,3.13,10.16,29.28,9.1,1057.8,0.0,0.0,62.10165833333334,6.896481666666666,0.85
1620474611.4853382,0.44,-1.0,3.24,3.13,10.18,29.28,9.1,1057.8,0.0,0.0,62.10165833333334,6.896481666666666,0.85
1620474611.5936785,0.44,-1.0,3.24,3.13,10.18,27.8,9.1,1057.8,0.0,0.0,62.10165833333334,6.896481666666666,0.85
1620474611.7024956,0.44,-1.0,3.36,3.13,10.18,27.8,9.1,1057.8,0.0,0.0,62.10165833333334,6.896481666666666,0.85
1620474611.8114345,0.44,-1.0,3.36,3.1,10.2,26.79,9.1,1057.8,0.0,0.0,62.101659999999995,6.89649,0.85
1620474611.922576,0.43,-1.0,3.36,3.1,10.2,26.79,9.1,1056.1,0.0,0.0,62.101659999999995,6.89649,0.85
1620474612.0153205,0.43,-1.0,3.47,3.03,10.2,26.79,9.1,1056.1,0.0,0.0,62.101659999999995,6.89649,0.85
1620474612.1053925,0.43,-1.0,3.47,3.03,10.21,26.2,9.1,1056.1,0.0,0.0,62.101659999999995,6.89649,0.85
1620474612.2135365,0.42,-1.0,3.47,3.03,10.21,26.2,9.1,1056.1,0.0,0.0,62.101659999999995,6.89649,0.85
1620474612.3075466,0.42,-1.0,3.55,3.05,10.22,26.2,9.1,1056.1,0.0,0.0,62.101659999999995,6.89649,0.85
1620474612.4162998,0.42,-1.0,3.55,3.05,10.22,25.56,9.1,1055.2,0.0,0.0,62.101659999999995,6.89649,0.85
1620474612.511602,0.42,-1.0,3.53,3.12,10.22,25.56,9.1,1055.2,0.0,0.0,62.101659999999995,6.89649,0.85
1620474612.6200528,0.42,-1.0,3.53,3.12,10.21,24.91,9.1,1055.2,0.0,0.0,62.101659999999995,6.89649,0.85
1620474612.727107,0.42,-1.0,3.53,3.12,10.21,24.91,9.1,1055.2,0.0,0.0,62.101659999999995,6.89649,0.85
1620474612.8198605,0.42,-1.0,3.54,3.15,10.21,24.91,9.1,1055.2,0.0,0.0,62.101661666666665,6.896496666666667,0.84
1620474612.913537,0.41,-1.0,3.54,3.15,10.21,25.31,9.1,1054.3,0.0,0.0,62.101661666666665,6.896496666666667,0.84
1620474613.0080645,0.41,-1.0,3.58,3.15,10.21,25.31,9.1,1054.3,0.0,0.0,62.101661666666665,6.896496666666667,0.84
1620474613.1013288,0.41,-1.0,3.58,3.1,10.22,25.4,9.1,1054.3,0.0,0.0,62.101661666666665,6.896496666666667,0.84
1620474613.1954954,0.43,-1.0,3.58,3.1,10.22,25.4,9.1,1054.3,0.0,0.0,62.101661666666665,6.896496666666667,0.84
1620474613.3012478,0.43,-1.0,3.61,3.13,10.22,25.4,9.1,1054.3,0.0,0.0,62.101661666666665,6.896496666666667,0.84
1620474613.396496,0.43,-1.0,3.61,3.13,10.22,24.89,9.1,1055.3,0.0,0.0,62.101661666666665,6.896496666666667,0.83
1620474613.4923875,0.42,-1.0,3.61,3.13,10.22,24.89,9.1,1055.3,0.0,0.0,62.101661666666665,6.896496666666667,0.83
1620474613.5846498,0.42,-1.0,3.69,3.11,10.23,24.89,9.1,1055.3,0.0,0.0,62.101661666666665,6.896496666666667,0.83
1620474613.6787548,0.43,-1.0,3.69,3.11,10.23,24.47,9.1,1055.3,0.0,0.0,62.101661666666665,6.896496666666667,0.83
1620474613.7714536,0.43,-1.0,3.72,3.11,10.23,24.47,9.1,1055.3,0.0,0.0,62.101661666666665,6.896496666666667,0.83
1620474613.8773417,0.43,-1.0,3.72,3.06,10.23,24.25,9.1,1055.3,0.0,0.0,62.101663333333335,6.896505,0.83
1620474613.9865313,0.43,-1.0,3.72,3.06,10.23,24.25,9.1,1056.4,0.0,0.0,62.101663333333335,6.896505,0.83
1620474614.0947573,0.43,-1.0,3.79,3.03,10.24,24.25,9.1,1056.4,0.0,0.0,62.101663333333335,6.896505,0.83
1620474614.2035198,0.43,-1.0,3.79,3.03,10.24,23.78,9.1,1056.4,0.0,0.0,62.101663333333335,6.896505,0.83
1620474614.3123326,0.43,-1.0,3.79,3.03,10.24,23.78,9.1,1056.4,0.0,0.0,62.101663333333335,6.896505,0.83
1620474614.422074,0.43,-1.0,3.9,3.04,10.25,23.78,9.1,1056.4,0.0,0.0,62.101663333333335,6.896505,0.83
1620474614.4998672,0.43,-1.0,3.9,3.04,10.25,22.98,9.1,1056.7,0.0,0.0,62.101663333333335,6.896505,0.83
1620474614.5936186,0.43,-1.0,3.97,2.94,10.25,22.98,9.1,1056.7,0.0,0.0,62.101663333333335,6.896505,0.81
1620474614.6875696,0.43,-1.0,3.97,2.94,10.26,22.57,9.1,1056.7,0.0,0.0,62.101663333333335,6.896505,0.81
1620474614.779324,0.43,-1.0,3.97,2.94,10.26,22.57,9.1,1056.7,0.0,0.0,62.101663333333335,6.896505,0.81
1620474614.8563683,0.43,-1.0,4.13,2.92,10.27,22.57,9.1,1056.7,0.0,0.0,62.101666666666674,6.896511666666667,0.81
1620474614.967077,0.42,-1.0,4.13,2.92,10.27,22.39,9.1,1055.8,0.0,0.0,62.101666666666674,6.896511666666667,0.81
1620474615.0775526,0.42,-1.0,4.13,2.92,10.27,22.39,9.1,1055.8,0.0,0.0,62.101666666666674,6.896511666666667,0.81
1620474615.1864185,0.42,-1.0,4.2,2.93,10.28,22.39,9.1,1055.8,0.0,0.0,62.101666666666674,6.896511666666667,0.81
1620474615.2971199,0.43,-1.0,4.2,2.93,10.28,21.88,9.1,1055.8,0.0,0.0,62.101666666666674,6.896511666666667,0.81
1620474615.391501,0.43,-1.0,4.18,2.82,10.28,21.88,9.1,1055.8,0.0,0.0,62.101666666666674,6.896511666666667,0.81
1620474615.5011966,0.41,-1.0,4.18,2.82,10.28,21.83,9.1,1054.8,0.0,0.0,62.101666666666674,6.896511666666667,0.81
1620474615.6104798,0.41,-1.0,4.18,2.82,10.28,21.83,9.1,1054.8,0.0,0.0,62.101666666666674,6.896511666666667,0.86
1620474615.7181437,0.41,-1.0,4.16,2.77,10.29,21.83,9.1,1054.8,0.0,0.0,62.101666666666674,6.896511666666667,0.86
1620474615.8274858,0.41,-1.0,4.16,2.77,10.29,22.29,9.1,1054.8,0.0,0.0,62.10166833333333,6.896518333333334,0.86
1620474615.9372573,0.41,-1.0,4.16,2.77,10.29,22.29,9.1,1054.8,0.0,0.0,62.10166833333333,6.896518333333334,0.86
1620474616.0460653,0.41,-1.0,4.09,2.78,10.28,22.52,9.1,1054.8,0.0,0.0,62.10166833333333,6.896518333333334,0.86
1620474616.1555574,0.41,-1.0,4.09,2.78,10.28,22.52,9.1,1054.6,0.0,0.0,62.10166833333333,6.896518333333334,0.86
1620474616.2683983,0.41,-1.0,4.08,2.78,10.28,22.52,9.1,1054.6,0.0,0.0,62.10166833333333,6.896518333333334,0.86
1620474616.3787026,0.43,-1.0,4.08,2.78,10.28,22.07,9.1,1054.6,0.0,0.0,62.10166833333333,6.896518333333334,0.86
1620474616.47146,0.43,-1.0,4.08,2.78,10.28,22.07,9.1,1054.6,0.0,0.0,62.10166833333333,6.896518333333334,0.86
1620474616.5632606,0.43,-1.0,4.09,2.71,10.29,22.07,9.1,1054.6,0.0,0.0,62.10166833333333,6.896518333333334,0.86
1620474616.6742654,0.44,-1.0,4.09,2.71,10.29,21.49,9.1,1057.0,0.0,0.0,62.10166833333333,6.896518333333334,0.82
1620474616.780981,0.44,-1.0,4.11,2.71,10.29,21.49,9.1,1057.0,0.0,0.0,62.10166833333333,6.896518333333334,0.82
1620474616.8896918,0.44,-1.0,4.11,2.71,10.29,21.1,9.1,1057.0,0.0,0.0,62.10166833333333,6.896518333333334,0.82
1620474616.9844372,0.44,-1.0,4.11,2.71,10.29,21.1,9.1,1057.0,0.0,0.0,62.10166833333333,6.896518333333334,0.82
1620474617.092786,0.44,-1.0,4.15,2.77,10.29,21.1,9.1,1057.0,0.0,0.0,62.10166833333333,6.896518333333334,0.82
1620474617.2006667,0.43,-1.0,4.15,2.77,10.29,20.24,9.1,1056.0,0.0,0.0,62.10166833333333,6.896518333333334,0.82
1620474617.3099666,0.43,-1.0,4.19,2.77,10.29,20.24,9.1,1056.0,0.0,0.0,62.10166833333333,6.896518333333334,0.82
1620474617.4182377,0.43,-1.0,4.19,2.8,10.29,19.04,9.1,1056.0,0.0,0.0,62.10166833333333,6.896518333333334,0.82
1620474617.5308747,0.43,-1.0,4.19,2.8,10.29,19.04,9.1,1056.0,0.0,0.0,62.10166833333333,6.896518333333334,0.82
1620474617.6383522,0.43,-1.0,4.22,2.74,10.29,19.04,9.1,1056.0,0.0,0.0,62.10167166666667,6.8965266666666665,0.9
1620474617.7464514,0.43,-1.0,4.22,2.74,10.29,18.09,9.1,1056.0,0.0,0.0,62.10167166666667,6.8965266666666665,0.9
1620474617.856118,0.43,-1.0,4.22,2.74,10.29,18.09,9.1,1056.0,0.0,0.0,62.10167166666667,6.8965266666666665,0.9
1620474617.96383,0.43,-1.0,4.28,2.77,10.3,18.09,9.1,1056.0,0.0,0.0,62.10167166666667,6.8965266666666665,0.9
1620474618.0565891,0.41,-1.0,4.28,2.77,10.3,17.62,9.2,1056.0,0.0,0.0,62.10167166666667,6.8965266666666665,0.9
1620474618.150927,0.41,-1.0,4.34,2.77,10.3,17.62,9.2,1056.0,0.0,0.0,62.10167333333334,6.896535,0.9
1620474618.2600021,0.41,-1.0,4.34,2.77,10.3,16.69,9.2,1055.7,0.0,0.0,62.10167333333334,6.896535,0.9
1620474618.3499763,0.42,-1.0,4.34,2.77,10.3,16.69,9.2,1055.7,0.0,0.0,62.10167333333334,6.896535,0.9
1620474618.4467194,0.42,-1.0,4.36,2.75,10.3,16.69,9.2,1055.7,0.0,0.0,62.10167333333334,6.896535,0.9
1620474618.5417466,0.42,-1.0,4.36,2.75,10.3,15.7,9.1,1055.7,0.0,0.0,62.10167333333334,6.896535,0.9
1620474618.6340349,0.42,-1.0,4.4,2.75,10.3,15.7,9.1,1055.7,0.0,0.0,62.10167333333334,6.896535,1.02
1620474618.7300198,0.42,-1.0,4.4,2.7,10.31,14.77,9.1,1055.7,0.0,0.0,62.10167333333334,6.896535,1.02
1620474618.8376145,0.43,-1.0,4.4,2.7,10.31,14.77,9.1,1056.1,0.0,0.0,62.10167333333334,6.896535,1.02
1620474618.9309242,0.43,-1.0,4.48,2.76,10.31,14.77,9.1,1056.1,0.0,0.0,62.10167333333334,6.896535,1.02
1620474619.023477,0.43,-1.0,4.48,2.76,10.31,13.79,9.1,1056.1,0.0,0.0,62.10167333333334,6.896535,1.02
1620474619.1327171,0.42,-1.0,4.48,2.76,10.31,13.79,9.1,1056.1,0.0,0.0,62.10167666666666,6.896545,1.11
1620474619.2244706,0.42,-1.0,4.48,2.76,10.31,13.79,9.1,1056.1,0.0,0.0,62.10167666666666,6.896545,1.11
1620474619.318229,0.43,-1.0,4.48,2.76,10.31,13.22,9.1,1055.9,0.0,0.0,62.10167666666666,6.896545,1.11
1620474619.4289238,0.43,-1.0,4.48,2.67,10.31,13.22,9.1,1055.9,0.0,0.0,62.10167666666666,6.896545,1.11
1620474619.521682,0.43,-1.0,4.48,2.67,10.32,12.57,9.1,1055.9,0.0,0.0,62.10167666666666,6.896545,1.11
1620474619.6177146,0.42,-1.0,4.48,2.67,10.32,12.57,9.1,1055.9,0.0,0.0,62.10167666666666,6.896545,1.11
1620474619.7124357,0.42,-1.0,4.52,2.68,10.32,12.57,9.1,1055.9,0.0,0.0,62.10167833333333,6.896555000000001,1.11
1620474619.8053527,0.43,-1.0,4.52,2.68,10.32,11.67,9.1,1056.3,0.0,0.0,62.10167833333333,6.896555000000001,1.11
1620474619.900453,0.43,-1.0,4.52,2.68,10.32,11.67,9.1,1056.3,0.0,0.0,62.10167833333333,6.896555000000001,1.11
1620474619.9931166,0.43,-1.0,4.56,2.67,10.32,11.67,9.1,1056.3,0.0,0.0,62.10167833333333,6.896555000000001,1.11
1620474620.0844197,0.42,-1.0,4.56,2.67,10.32,10.79,9.1,1056.3,0.0,0.0,62.10167833333333,6.896555000000001,1.11
1620474620.1798627,0.42,-1.0,4.56,2.62,10.32,10.79,9.1,1056.3,0.0,0.0,62.10167833333333,6.896555000000001,1.11
1620474620.2741892,0.42,-1.0,4.56,2.62,10.33,10.16,9.1,1058.3,0.0,0.0,62.10167833333333,6.896555000000001,1.11
1620474620.381109,0.45,-1.0,4.56,2.62,10.33,10.16,9.1,1058.3,0.0,0.0,62.10167833333333,6.896555000000001,1.11
1620474620.4728582,0.45,-1.0,4.62,2.6,10.33,10.16,9.1,1058.3,0.0,0.0,62.10167833333333,6.896555000000001,1.11
1620474620.581018,0.44,-1.0,4.62,2.6,10.33,9.72,9.1,1058.3,0.0,0.0,62.10167833333333,6.896555000000001,1.11
1620474620.690127,0.44,-1.0,4.62,2.6,10.33,9.72,9.1,1058.3,0.0,0.0,62.10168,6.896565,1.22
1620474620.7987752,0.44,-1.0,4.72,2.68,10.33,9.72,9.1,1058.3,0.0,0.0,62.10168,6.896565,1.22
1620474620.9094803,0.42,-1.0,4.72,2.68,10.33,8.98,9.1,1055.8,0.0,0.0,62.10168,6.896565,1.22
1620474621.0167372,0.42,-1.0,4.73,2.65,10.34,8.98,9.1,1055.8,0.0,0.0,62.10168,6.896565,1.22
1620474621.1255054,0.42,-1.0,4.73,2.65,10.34,8.23,9.1,1055.8,0.0,0.0,62.10168,6.896565,1.22
1620474621.2365031,0.42,-1.0,4.73,2.65,10.34,8.23,9.1,1055.8,0.0,0.0,62.10168,6.896565,1.22
1620474621.3457828,0.42,-1.0,4.82,2.62,10.34,8.23,9.1,1055.8,0.0,0.0,62.10168,6.896565,1.22
1620474621.4371827,0.44,-1.0,4.82,2.62,10.34,7.72,9.1,1057.4,0.0,0.0,62.10168,6.896565,1.22
1620474621.5312955,0.44,-1.0,4.94,2.62,10.34,7.72,9.1,1057.4,0.0,0.0,62.10168,6.896565,1.22
1620474621.6426358,0.44,-1.0,4.94,2.61,10.35,7.24,9.1,1057.4,0.0,0.0,62.10168,6.896565,1.22
1620474621.7335825,0.42,-1.0,4.94,2.61,10.35,7.24,9.1,1057.4,0.0,0.0,62.10168,6.896565,1.25
1620474621.8438005,0.42,-1.0,4.98,2.66,10.35,7.24,9.1,1057.4,0.0,0.0,62.10168,6.896565,1.25
1620474621.9524763,0.43,-1.0,4.98,2.66,10.35,6.68,9.1,1056.2,0.0,0.0,62.10168,6.896565,1.25
1620474622.062441,0.43,-1.0,5.02,2.66,10.35,6.68,9.1,1056.2,0.0,0.0,62.10168,6.896565,1.25
1620474622.184004,0.43,-1.0,5.02,2.65,10.35,6.11,9.1,1056.2,0.0,0.0,62.10168,6.896565,1.25
1620474622.2652283,0.42,-1.0,5.02,2.65,10.35,6.11,9.1,1056.2,0.0,0.0,62.10168,6.896565,1.25
1620474622.375619,0.42,-1.0,5.1,2.66,10.35,6.11,9.1,1056.2,0.0,0.0,62.10168,6.896565,1.25
1620474622.4793303,0.42,-1.0,5.1,2.66,10.35,5.77,9.1,1056.2,0.0,0.0,62.10168,6.896565,1.25
1620474622.5723324,0.43,-1.0,5.1,2.66,10.35,5.77,9.1,1056.8,0.0,0.0,62.10168,6.896565,1.25
1620474622.6825984,0.43,-1.0,5.12,2.6,10.36,5.77,9.1,1056.8,0.0,0.0,62.10168333333333,6.896578333333334,1.37
1620474622.7927632,0.42,-1.0,5.12,2.6,10.36,5.36,9.2,1056.8,0.0,0.0,62.10168333333333,6.896578333333334,1.37
1620474622.89848,0.42,-1.0,5.21,2.6,10.36,5.36,9.2,1056.8,0.0,0.0,62.10168333333333,6.896578333333334,1.37
1620474622.992279,0.42,-1.0,5.21,2.6,10.36,5.14,9.2,1056.8,0.0,0.0,62.10168333333333,6.896578333333334,1.37
1620474623.1016362,0.43,-1.0,5.21,2.6,10.36,5.14,9.2,1056.0,0.0,0.0,62.10168333333333,6.896578333333334,1.37
1620474623.2109902,0.43,-1.0,5.24,2.61,10.36,5.14,9.2,1056.0,0.0,0.0,62.10168333333333,6.896578333333334,1.37
1620474623.3168294,0.43,-1.0,5.24,2.61,10.36,4.79,9.1,1056.0,0.0,0.0,62.10168333333333,6.896578333333334,1.37
1620474623.4268675,0.44,-1.0,5.24,2.61,10.36,4.79,9.1,1056.0,0.0,0.0,62.10168333333333,6.896578333333334,1.37
1620474623.5213351,0.44,-1.0,5.24,2.55,10.37,4.79,9.1,1056.0,0.0,0.0,62.10168333333333,6.896578333333334,1.37
1620474623.6310475,0.42,-1.0,5.24,2.55,10.37,4.54,9.1,1055.5,0.0,0.0,62.10168333333333,6.89659,1.53
1620474623.7227962,0.42,-1.0,5.27,2.56,10.37,4.54,9.1,1055.5,0.0,0.0,62.10168333333333,6.89659,1.53
1620474623.8322873,0.42,-1.0,5.27,2.56,10.37,4.48,9.1,1055.5,0.0,0.0,62.10168333333333,6.89659,1.53
1620474623.924994,0.42,-1.0,5.27,2.56,10.37,4.48,9.1,1055.5,0.0,0.0,62.10168333333333,6.89659,1.53
1620474624.018746,0.42,-1.0,5.23,2.57,10.37,4.48,9.1,1055.5,0.0,0.0,62.10168333333333,6.89659,1.53
1620474624.1276598,0.42,-1.0,5.23,2.57,10.37,4.41,9.1,1057.0,0.0,0.0,62.10168333333333,6.89659,1.53
1620474624.2363858,0.44,-1.0,5.25,2.57,10.37,4.41,9.1,1057.0,0.0,0.0,62.10168333333333,6.89659,1.53
1620474624.3452876,0.44,-1.0,5.25,2.55,10.37,3.98,9.1,1057.0,0.0,0.0,62.10168333333333,6.89659,1.53
1620474624.4362316,0.43,-1.0,5.25,2.55,10.37,3.98,9.2,1057.0,0.0,0.0,62.10168333333333,6.89659,1.53
1620474624.5460413,0.43,-1.0,5.26,2.53,10.37,3.98,9.2,1057.0,0.0,0.0,62.10168333333333,6.89659,1.53
1620474624.6557844,0.43,-1.0,5.26,2.53,10.37,3.56,9.2,1056.4,0.0,0.0,62.101684999999996,6.896606666666666,1.7
1620474624.7654746,0.43,-1.0,5.26,2.53,10.37,3.56,9.2,1056.4,0.0,0.0,62.101684999999996,6.896606666666666,1.7
1620474624.8741825,0.43,-1.0,5.32,2.52,10.38,3.56,9.2,1056.4,0.0,0.0,62.101684999999996,6.896606666666666,1.7
1620474624.9828916,0.43,-1.0,5.32,2.52,10.38,3.88,9.2,1056.4,0.0,0.0,62.101684999999996,6.896606666666666,1.7
1620474625.0925994,0.43,-1.0,5.4,2.52,10.38,3.88,9.2,1056.4,0.0,0.0,62.101684999999996,6.896606666666666,1.7
1620474625.1855977,0.43,-1.0,5.4,2.53,10.38,45.2,9.2,1056.0,0.0,0.0,62.101684999999996,6.896606666666666,1.7
1620474625.2934458,0.43,-1.0,5.4,2.53,10.38,45.2,9.2,1056.0,0.0,0.0,62.101684999999996,6.896606666666666,1.7
1620474625.402153,0.43,-1.0,5.39,2.54,10.38,45.2,9.2,1056.0,0.0,0.0,62.101684999999996,6.896606666666666,1.7
1620474625.5092862,0.43,-1.0,5.39,2.54,10.38,81.53,9.2,1056.0,0.0,0.0,62.101684999999996,6.896606666666666,1.7
1620474625.6202493,0.43,-1.0,5.39,2.54,10.38,81.53,9.2,1056.0,0.0,0.0,62.101686666666666,6.896623333333334,1.85
1620474625.715185,0.43,-1.0,5.4,2.52,10.38,81.53,9.2,1056.0,0.0,0.0,62.101686666666666,6.896623333333334,1.85
1620474625.8249106,0.43,-1.0,5.4,2.52,10.38,92.27,9.2,1056.7,0.0,0.0,62.101686666666666,6.896623333333334,1.85
1620474625.9341948,0.43,-1.0,5.37,2.57,10.38,92.27,9.2,1056.7,0.0,0.0,62.101686666666666,6.896623333333334,1.85
1620474626.042689,0.43,-1.0,5.37,2.57,10.38,81.61,9.2,1056.7,0.0,0.0,62.101686666666666,6.896623333333334,1.85
1620474626.1488543,0.43,-1.0,5.37,2.57,10.38,81.61,9.2,1056.7,0.0,0.0,62.101686666666666,6.896623333333334,1.85
1620474626.2428424,0.43,-1.0,5.33,2.59,10.37,81.61,9.2,1056.7,0.0,0.0,62.101688333333335,6.896643333333333,1.85
1620474626.3379982,0.45,-1.0,5.33,2.59,10.37,93.66,9.2,1058.2,0.0,0.0,62.101688333333335,6.896643333333333,1.85
1620474626.4317825,0.45,-1.0,5.33,2.59,10.37,93.66,9.2,1058.2,0.0,0.0,62.101688333333335,6.896643333333333,1.85
1620474626.5418742,0.45,-1.0,5.31,2.5,10.38,93.66,9.2,1058.2,0.0,0.0,62.101688333333335,6.896643333333333,1.85
1620474626.635364,0.43,-1.0,5.31,2.5,10.38,82.81,9.1,1058.2,0.0,0.0,62.101688333333335,6.896643333333333,1.85
1620474626.7423177,0.43,-1.0,5.24,2.49,10.38,82.81,9.1,1058.2,0.0,0.0,62.101688333333335,6.896643333333333,1.85
1620474626.835436,0.43,-1.0,5.24,2.49,10.38,73.45,9.1,1056.8,0.0,0.0,62.101688333333335,6.896663333333334,1.95
1620474626.9301822,0.43,-1.0,5.24,2.49,10.38,73.45,9.1,1056.8,0.0,0.0,62.101688333333335,6.896663333333334,1.95
1620474627.0241306,0.43,-1.0,5.31,2.51,10.38,73.45,9.1,1056.8,0.0,0.0,62.101688333333335,6.896663333333334,1.95
1620474627.1158836,0.42,-1.0,5.31,2.51,10.38,86.46,9.1,1056.8,0.0,0.0,62.101688333333335,6.896663333333334,1.95
1620474627.2101624,0.42,-1.0,5.31,2.51,10.38,86.46,9.1,1056.8,0.0,0.0,62.101688333333335,6.896663333333334,1.95
1620474627.3178396,0.42,-1.0,5.31,2.47,10.38,86.46,9.1,1056.8,0.0,0.0,62.101688333333335,6.896663333333334,2.03
1620474627.4281206,0.42,-1.0,5.31,2.47,10.38,117.99,9.1,1055.8,0.0,0.0,62.101688333333335,6.896663333333334,2.03
1620474627.5204809,0.42,-1.0,5.31,2.4,10.39,117.99,9.1,1055.8,0.0,0.0,62.101688333333335,6.896663333333334,2.03
1620474627.6142294,0.41,-1.0,5.31,2.4,10.39,145.76,9.2,1055.8,0.0,0.0,62.101688333333335,6.896663333333334,2.03
1620474627.7095795,0.41,-1.0,5.31,2.4,10.39,145.76,9.2,1055.8,0.0,0.0,62.101688333333335,6.896663333333334,2.03
1620474627.8008862,0.41,-1.0,5.34,2.46,10.39,145.76,9.2,1055.8,0.0,0.0,62.101688333333335,6.896683333333334,2.03
1620474627.9122198,0.43,-1.0,5.34,2.46,10.39,148.98,9.2,1056.7,0.0,0.0,62.101688333333335,6.896683333333334,2.03
1620474628.003972,0.43,-1.0,5.36,2.46,10.39,148.98,9.2,1056.7,0.0,0.0,62.101688333333335,6.896683333333334,2.03
1620474628.112003,0.43,-1.0,5.36,2.53,10.38,151.91,9.2,1056.7,0.0,0.0,62.101688333333335,6.896683333333334,2.03
1620474628.2217104,0.43,-1.0,5.36,2.53,10.38,151.91,9.2,1056.7,0.0,0.0,62.101688333333335,6.896683333333334,2.03
1620474628.315496,0.43,-1.0,5.33,2.47,10.39,151.91,9.2,1056.7,0.0,0.0,62.101688333333335,6.896683333333334,2.1
1620474628.425276,0.43,-1.0,5.33,2.47,10.39,175.59,9.2,1055.9,0.0,0.0,62.101688333333335,6.896683333333334,2.1
1620474628.5176327,0.43,-1.0,5.31,2.47,10.39,175.59,9.2,1055.9,0.0,0.0,62.101688333333335,6.896683333333334,2.1
1620474628.6113436,0.43,-1.0,5.31,2.45,10.39,196.8,9.2,1055.9,0.0,0.0,62.101688333333335,6.896683333333334,2.1
1620474628.7200522,0.43,-1.0,5.31,2.45,10.39,196.8,9.2,1055.9,0.0,0.0,62.101688333333335,6.896683333333334,2.1
1620474628.8290422,0.43,-1.0,5.31,2.52,10.39,196.8,9.2,1055.9,0.0,0.0,62.101688333333335,6.896683333333334,2.1
1620474628.9257843,0.43,-1.0,5.31,2.52,10.38,215.59,9.2,1056.0,0.0,0.0,62.101688333333335,6.896683333333334,2.1
1620474629.0165417,0.43,-1.0,5.31,2.52,10.38,215.59,9.2,1056.0,0.0,0.0,62.101688333333335,6.896683333333334,2.1
1620474629.125175,0.43,-1.0,5.28,2.55,10.38,215.59,9.2,1056.0,0.0,0.0,62.101688333333335,6.896683333333334,2.1
1620474629.2349534,0.42,-1.0,5.28,2.55,10.38,232.28,9.2,1056.0,0.0,0.0,62.101688333333335,6.896683333333334,2.1
1620474629.34267,0.42,-1.0,5.29,2.55,10.38,232.28,9.2,1056.0,0.0,0.0,62.101688333333335,6.896683333333334,2.1
1620474629.452416,0.42,-1.0,5.29,2.55,10.38,246.74,9.2,1057.1,0.0,0.0,62.101688333333335,6.896683333333334,2.1
1620474629.5616095,0.44,-1.0,5.29,2.55,10.38,246.74,9.2,1057.1,0.0,0.0,62.101688333333335,6.896683333333334,2.1
1620474629.6693184,0.44,-1.0,5.27,2.53,10.38,246.74,9.2,1057.1,0.0,0.0,62.101688333333335,6.896704999999999,2.16
1620474629.7762141,0.42,-1.0,5.27,2.53,10.38,239.58,9.2,1057.1,0.0,0.0,62.101688333333335,6.896704999999999,2.16
1620474629.8840039,0.42,-1.0,5.27,2.53,10.38,239.58,9.2,1057.1,0.0,0.0,62.101688333333335,6.896704999999999,2.16
1620474629.9799612,0.42,-1.0,5.27,2.49,10.38,211.93,9.2,1057.1,0.0,0.0,62.101688333333335,6.896704999999999,2.16
1620474630.0765512,0.44,-1.0,5.27,2.49,10.38,211.93,9.2,1056.9,0.0,0.0,62.101688333333335,6.896704999999999,2.16
1620474630.1824708,0.44,-1.0,5.3,2.49,10.38,211.93,9.2,1056.9,0.0,0.0,62.101688333333335,6.896726666666666,2.22
1620474630.2942727,0.44,-1.0,5.3,2.49,10.38,188.27,9.1,1056.9,0.0,0.0,62.101688333333335,6.896726666666666,2.22
1620474630.4039853,0.41,-1.0,5.3,2.49,10.38,188.27,9.1,1056.9,0.0,0.0,62.101688333333335,6.896726666666666,2.22
1620474630.5125628,0.41,-1.0,5.19,2.39,10.39,188.27,9.1,1056.9,0.0,0.0,62.101688333333335,6.896726666666666,2.22
1620474630.6060367,0.42,-1.0,5.19,2.39,10.39,167.24,9.1,1055.3,0.0,0.0,62.101688333333335,6.896726666666666,2.22
1620474630.6987898,0.42,-1.0,5.06,2.39,10.39,167.24,9.1,1055.3,0.0,0.0,62.101688333333335,6.896726666666666,2.22
1620474630.8074965,0.42,-1.0,5.06,2.28,10.39,149.34,9.1,1055.3,0.0,0.0,62.101688333333335,6.896726666666666,2.22
1620474630.9169016,0.4,-1.0,5.06,2.28,10.39,149.34,9.2,1055.3,0.0,0.0,62.101688333333335,6.896726666666666,2.22
1620474631.0261908,0.4,-1.0,4.94,2.3,10.38,149.34,9.2,1055.3,0.0,0.0,62.101688333333335,6.896726666666666,2.22
1620474631.1190348,0.4,-1.0,4.94,2.3,10.38,133.81,9.2,1053.7,0.0,0.0,62.101688333333335,6.896726666666666,2.22
1620474631.2131317,0.4,-1.0,4.94,2.3,10.38,133.81,9.2,1053.7,0.0,0.0,62.101688333333335,6.896749999999999,2.22
1620474631.3200722,0.4,-1.0,4.74,2.28,10.37,133.81,9.2,1053.7,0.0,0.0,62.101688333333335,6.896749999999999,2.22
1620474631.414914,0.43,-1.0,4.74,2.28,10.37,120.48,9.1,1053.7,0.0,0.0,62.101688333333335,6.896749999999999,2.22
1620474631.5095682,0.43,-1.0,4.53,2.23,10.37,120.48,9.1,1053.7,0.0,0.0,62.101688333333335,6.896749999999999,2.22
1620474631.5923476,0.43,-1.0,4.53,2.23,10.36,109.04,9.1,1054.9,0.0,0.0,62.101688333333335,6.896749999999999,2.22
1620474631.6950724,0.42,-1.0,4.53,2.23,10.36,109.04,9.1,1054.9,0.0,0.0,62.101688333333335,6.896749999999999,2.26
1620474631.7858684,0.42,-1.0,4.35,2.25,10.35,109.04,9.1,1054.9,0.0,0.0,62.101688333333335,6.896749999999999,2.26
1620474631.892545,0.42,-1.0,4.35,2.25,10.35,98.88,9.2,1054.9,0.0,0.0,62.101688333333335,6.896749999999999,2.26
1620474632.0012522,0.42,-1.0,4.25,2.39,10.35,98.88,9.2,1054.9,0.0,0.0,62.101688333333335,6.896749999999999,2.26
1620474632.1103454,0.42,-1.0,4.25,2.39,10.33,89.92,9.2,1054.6,0.0,0.0,62.101688333333335,6.896749999999999,2.26
1620474632.2179055,0.41,-1.0,4.11,2.39,10.33,89.92,9.2,1054.6,0.0,0.0,62.101688333333335,6.896749999999999,2.26
1620474632.327614,0.41,-1.0,4.11,2.48,10.32,82.31,9.2,1054.6,0.0,0.0,62.101688333333335,6.896773333333334,2.26
1620474632.4357336,0.41,-1.0,3.93,2.48,10.32,82.31,9.2,1054.6,0.0,0.0,62.101688333333335,6.896773333333334,2.26
1620474632.544638,0.41,-1.0,3.93,2.45,10.3,75.54,9.2,1054.6,0.0,0.0,62.101688333333335,6.896773333333334,2.26
1620474632.638388,0.42,-1.0,3.78,2.45,10.3,75.54,9.2,1055.3,0.0,0.0,62.101688333333335,6.896773333333334,2.26
1620474632.7451053,0.42,-1.0,3.78,2.5,10.29,69.58,9.2,1055.3,0.0,0.0,62.101688333333335,6.896773333333334,2.26
1620474632.841846,0.41,-1.0,3.78,2.5,10.29,69.58,9.2,1055.3,0.0,0.0,62.101686666666666,6.896794999999999,2.27
1620474632.9497366,0.41,-1.0,3.71,2.63,10.27,69.58,9.2,1055.3,0.0,0.0,62.101686666666666,6.896794999999999,2.27
1620474633.044486,0.41,-1.0,3.71,2.63,10.27,64.38,9.2,1054.3,0.0,0.0,62.101686666666666,6.896794999999999,2.27
1620474633.1522293,0.41,-1.0,3.58,2.72,10.26,64.38,9.2,1054.3,0.0,0.0,62.101686666666666,6.896794999999999,2.27
1620474633.2603657,0.4,-1.0,3.58,2.72,10.26,60.13,9.2,1054.3,0.0,0.0,62.101686666666666,6.896794999999999,2.27
1620474633.3695896,0.4,-1.0,3.58,2.72,10.26,60.13,9.2,1054.3,0.0,0.0,62.101686666666666,6.896794999999999,2.29
1620474633.4779272,0.4,-1.0,3.41,2.69,10.24,60.13,9.2,1054.3,0.0,0.0,62.101686666666666,6.896794999999999,2.29
1620474633.5722744,0.42,-1.0,3.41,2.69,10.24,56.91,9.2,1055.5,0.0,0.0,62.101686666666666,6.896794999999999,2.29
1620474633.679662,0.42,-1.0,3.24,2.69,10.24,56.91,9.2,1055.5,0.0,0.0,62.101686666666666,6.896794999999999,2.29
1620474633.7727745,0.42,-1.0,3.24,2.69,10.22,54.01,9.2,1055.5,0.0,0.0,62.101686666666666,6.896794999999999,2.29
1620474633.8665245,0.41,-1.0,3.24,2.69,10.22,54.01,9.2,1055.5,0.0,0.0,62.101686666666666,6.896816666666666,2.29
1620474633.9582782,0.41,-1.0,3.07,2.79,10.2,54.01,9.2,1055.5,0.0,0.0,62.101686666666666,6.896816666666666,2.29
1620474634.0517786,0.41,-1.0,3.07,2.79,10.2,51.67,9.2,1054.5,0.0,0.0,62.101686666666666,6.896816666666666,2.29
1620474634.144903,0.41,-1.0,2.84,2.79,10.2,51.67,9.2,1054.5,0.0,0.0,62.101686666666666,6.896816666666666,2.29
1620474634.2387602,0.41,-1.0,2.84,2.82,10.17,50.16,9.2,1054.5,0.0,0.0,62.101686666666666,6.896816666666666,2.29
1620474634.3328564,0.41,-1.0,2.84,2.82,10.17,50.16,9.2,1054.5,0.0,0.0,62.101686666666666,6.896816666666666,2.29
1620474634.441251,0.41,-1.0,2.69,2.87,10.17,50.16,9.2,1054.5,0.0,0.0,62.101686666666666,6.896816666666666,2.31
1620474634.5346866,0.41,-1.0,2.69,2.87,10.15,48.88,9.2,1054.1,0.0,0.0,62.101686666666666,6.896816666666666,2.31
1620474634.6144397,0.41,-1.0,2.69,2.87,10.15,48.88,9.2,1054.1,0.0,0.0,62.101686666666666,6.896816666666666,2.31
1620474634.7243648,0.41,-1.0,2.51,2.95,10.12,48.88,9.2,1054.1,0.0,0.0,62.101686666666666,6.896816666666666,2.31
1620474634.818279,0.4,-1.0,2.51,2.95,10.12,47.75,9.2,1054.1,0.0,0.0,62.101686666666666,6.896816666666666,2.31
1620474634.913027,0.4,-1.0,2.17,3.0,10.12,47.75,9.2,1054.1,0.0,0.0,62.101686666666666,6.896839999999999,2.31
1620474635.0062103,0.4,-1.0,2.17,3.0,10.07,47.4,9.2,1054.9,0.0,0.0,62.101686666666666,6.896839999999999,2.31
1620474635.1002808,0.42,-1.0,2.17,3.0,10.07,47.4,9.2,1054.9,0.0,0.0,62.101686666666666,6.896839999999999,2.31
1620474635.194996,0.42,-1.0,1.87,3.03,10.03,47.4,9.2,1054.9,0.0,0.0,62.101686666666666,6.896839999999999,2.31
1620474635.286321,0.4,-1.0,1.87,3.03,10.03,47.66,9.1,1054.9,0.0,0.0,62.101686666666666,6.896839999999999,2.31
1620474635.3792052,0.4,-1.0,1.49,3.03,10.03,47.66,9.1,1054.9,0.0,0.0,62.101686666666666,6.896839999999999,2.35
1620474635.4891574,0.4,-1.0,1.49,3.09,9.97,48.24,9.1,1054.9,0.0,0.0,62.101686666666666,6.896839999999999,2.35
1620474635.5700657,0.41,-1.0,1.49,3.09,9.97,48.24,9.1,1053.9,0.0,0.0,62.101686666666666,6.896839999999999,2.35
1620474635.6629353,0.41,-1.0,1.04,3.12,9.91,48.24,9.1,1053.9,0.0,0.0,62.101686666666666,6.896839999999999,2.35
1620474635.7581465,0.41,-1.0,1.04,3.12,9.91,48.97,9.2,1053.9,0.0,0.0,62.101686666666666,6.896839999999999,2.35
1620474635.8678885,0.41,-1.0,0.58,3.16,9.85,48.97,9.2,1053.9,0.0,0.0,62.101686666666666,6.896839999999999,2.35
1620474635.97972,0.42,-1.0,0.58,3.16,9.85,50.09,9.2,1055.6,0.0,0.0,62.101684999999996,6.896865000000001,2.35
1620474636.0718274,0.42,-1.0,-0.02,3.21,9.85,50.09,9.2,1055.6,0.0,0.0,62.101684999999996,6.896865000000001,2.35
1620474636.1796792,0.42,-1.0,-0.02,3.21,9.8,51.66,9.2,1055.6,0.0,0.0,62.101684999999996,6.896865000000001,2.35
1620474636.2726288,0.42,-1.0,-0.67,3.21,9.8,51.66,9.2,1055.6,0.0,0.0,62.101684999999996,6.896865000000001,2.35
1620474636.3653789,0.42,-1.0,-0.67,3.29,9.77,53.22,9.2,1055.6,0.0,0.0,62.101684999999996,6.896865000000001,2.35
1620474636.4591258,0.43,-1.0,-1.32,3.29,9.77,53.22,9.2,1056.4,0.0,0.0,62.101684999999996,6.896865000000001,2.35
1620474636.5538747,0.43,-1.0,-1.32,3.36,9.76,54.74,9.2,1056.4,0.0,0.0,62.101684999999996,6.896865000000001,2.39
1620474636.6635811,0.44,-1.0,-1.32,3.36,9.76,54.74,9.2,1056.4,0.0,0.0,62.101684999999996,6.896865000000001,2.39
1620474636.7553344,0.44,-1.0,-1.96,3.52,9.76,56.28,9.2,1056.4,0.0,0.0,62.101684999999996,6.896865000000001,2.39
1620474636.8472524,0.45,-1.0,-1.96,3.52,9.76,56.28,9.2,1058.2,0.0,0.0,62.101684999999996,6.896888333333334,2.39
1620474636.9221022,0.45,-1.0,-2.62,3.63,9.76,56.28,9.2,1058.2,0.0,0.0,62.101684999999996,6.896888333333334,2.39
1620474637.0183773,0.47,-1.0,-2.62,3.63,9.76,57.87,9.2,1058.2,0.0,0.0,62.101684999999996,6.896888333333334,2.39
1620474637.1111279,0.47,-1.0,-3.25,3.7,9.77,57.87,9.2,1058.2,0.0,0.0,62.101684999999996,6.896888333333334,2.39
1620474637.2033188,0.48,-1.0,-3.25,3.7,9.77,59.5,9.2,1061.2,0.0,0.0,62.101684999999996,6.896888333333334,2.39
1620474637.2809732,0.48,-1.0,-3.87,3.83,9.78,59.5,9.2,1061.2,0.0,0.0,62.101684999999996,6.896888333333334,2.39
1620474637.3906803,0.5,-1.0,-3.87,3.83,9.78,60.91,9.2,1061.2,0.0,0.0,62.101684999999996,6.896888333333334,2.39
1620474637.49836,0.5,-1.0,-4.42,-16.3,8.09,60.91,9.2,1061.2,0.0,0.0,62.101684999999996,6.896888333333334,2.39
1620474637.595266,0.52,-1.0,-4.42,-16.3,8.09,62.38,9.2,1065.7,0.0,0.0,62.101684999999996,6.896888333333334,2.39
1620474637.7039685,0.52,-1.0,-4.96,-13.79,8.09,62.38,9.2,1065.7,0.0,0.0,62.101684999999996,6.896888333333334,2.39
1620474637.81168,0.54,-1.0,-4.96,-13.79,7.96,63.8,9.2,1065.7,0.0,0.0,62.101684999999996,6.896888333333334,2.39
1620474637.920389,0.54,-1.0,-5.45,-13.79,7.96,63.8,9.2,1065.7,0.0,0.0,62.101684999999996,6.896888333333334,2.39
1620474638.028642,0.54,-1.0,-5.45,-53.44,7.62,65.09,9.2,1065.7,0.0,0.0,62.101684999999996,6.896888333333334,2.39
1620474638.135408,0.57,-1.0,-5.45,-53.44,7.62,65.09,9.2,1070.5,0.0,0.0,62.101684999999996,6.896911666666667,2.39
1620474638.2447867,0.57,-1.0,-5.9,-68.19,7.45,65.09,9.2,1070.5,0.0,0.0,62.101684999999996,6.896911666666667,2.39
1620474638.339171,0.59,-1.0,-5.9,-68.19,7.45,66.33,9.2,1070.5,0.0,0.0,62.101684999999996,6.896911666666667,2.39
1620474638.4469197,0.59,-1.0,-6.32,-79.94,7.3,66.33,9.2,1070.5,0.0,0.0,62.101684999999996,6.896911666666667,2.39
1620474638.5409305,0.64,-1.0,-6.32,-79.94,7.3,67.44,9.2,1077.5,0.0,0.0,62.101684999999996,6.896911666666667,2.39
1620474638.6350899,0.64,-1.0,-6.32,-79.94,7.3,67.44,9.2,1077.5,0.0,0.0,62.101684999999996,6.896911666666667,2.37
1620474638.742881,0.64,-1.0,-6.73,-111.88,7.16,67.44,9.2,1077.5,0.0,0.0,62.101684999999996,6.896911666666667,2.37
1620474638.8367937,0.66,-1.0,-6.73,-111.88,7.16,68.5,9.2,1077.5,0.0,0.0,62.101684999999996,6.896911666666667,2.37
1620474638.928666,0.66,-1.0,-7.13,-111.88,7.16,68.5,9.2,1077.5,0.0,0.0,62.101684999999996,6.896911666666667,2.37
1620474639.021952,0.66,-1.0,-7.13,-118.52,7.03,69.6,9.2,1077.5,0.0,0.0,62.101684999999996,6.896911666666667,2.37
1620474639.1161947,0.72,-1.0,-7.13,-118.52,7.03,69.6,9.2,1086.0,0.0,0.0,62.101684999999996,6.896935,2.37
1620474639.2094154,0.72,-1.0,-7.42,-145.95,7.02,69.6,9.2,1086.0,0.0,0.0,62.101684999999996,6.896935,2.37
1620474639.3021684,0.73,-1.0,-7.42,-145.95,7.02,70.51,9.2,1086.0,0.0,0.0,62.101684999999996,6.896935,2.37
1620474639.3969119,0.73,-1.0,-7.42,-145.95,7.02,70.51,9.2,1086.0,0.0,0.0,62.101684999999996,6.896935,2.37
1620474639.4926565,0.73,-1.0,-7.69,-170.19,8.6,70.51,9.2,1086.0,0.0,0.0,62.101684999999996,6.896935,2.37
1620474639.5870998,0.77,-1.0,-7.69,-170.19,8.6,71.16,9.2,1090.5,0.0,0.0,62.101684999999996,6.896935,2.37
1620474639.6797569,0.77,-1.0,-7.88,-170.19,8.6,71.16,9.2,1090.5,0.0,0.0,62.101684999999996,6.896935,2.37
1620474639.7631807,0.77,-1.0,-7.88,168.37,12.77,71.87,9.2,1090.5,0.0,0.0,62.101684999999996,6.896935,2.37
1620474639.8671598,0.83,-1.0,-8.02,168.37,12.77,71.87,9.2,1090.5,0.0,0.0,62.101684999999996,6.896935,2.37
1620474639.962516,0.83,-1.0,-8.02,169.7,12.75,72.44,9.2,1090.5,0.0,0.0,62.101684999999996,6.896935,2.37
1620474640.0550468,0.85,-1.0,-8.02,169.7,12.75,72.44,9.2,1098.8,0.0,0.0,62.101684999999996,6.896935,2.37
1620474640.1482568,0.85,-1.0,-8.12,150.63,13.21,72.44,9.2,1098.8,0.0,0.0,62.101684999999996,6.896935,2.37
1620474640.2405772,0.87,-1.0,-8.12,150.63,13.21,72.86,9.2,1098.8,0.0,0.0,62.101684999999996,6.896935,2.37
1620474640.33579,0.87,-1.0,-8.16,133.73,13.31,72.86,9.2,1098.8,0.0,0.0,62.101684999999996,6.896935,2.37
1620474640.4278889,0.92,-1.0,-8.16,133.73,13.31,73.14,9.2,1106.3,0.0,0.0,62.101684999999996,6.896935,2.37
1620474640.522809,0.92,-1.0,-8.16,133.73,13.31,73.14,9.2,1106.3,0.0,0.0,62.101684999999996,6.896935,2.37
1620474640.6305697,0.92,-1.0,-8.18,139.13,13.31,73.14,9.2,1106.3,0.0,0.0,62.101686666666666,6.896956666666667,2.2
1620474640.7234812,0.96,-1.0,-8.18,139.13,13.31,73.44,9.2,1106.3,0.0,0.0,62.101686666666666,6.896956666666667,2.16
1620474640.817228,0.96,-1.0,-8.21,139.13,13.31,73.44,9.2,1106.3,0.0,0.0,62.101686666666666,6.896956666666667,2.16
1620474640.9273818,0.96,-1.0,-8.21,123.6,13.36,73.7,9.2,1106.3,0.0,0.0,62.101686666666666,6.896956666666667,2.16
1620474641.0201857,1.0,-1.0,-8.21,123.6,13.36,73.7,9.2,1113.9,0.0,0.0,62.101686666666666,6.896956666666667,2.16
1620474641.1145096,1.0,-1.0,-8.31,109.85,13.41,73.7,9.2,1113.9,0.0,0.0,62.101686666666666,6.896956666666667,2.16
1620474641.2213671,1.04,-1.0,-8.31,109.85,13.41,74.0,9.2,1113.9,0.0,0.0,62.101686666666666,6.896956666666667,2.16
1620474641.3298411,1.04,-1.0,-8.47,109.85,13.41,74.0,9.2,1113.9,0.0,0.0,62.101686666666666,6.896956666666667,2.16
1620474641.422587,1.04,-1.0,-8.47,97.76,13.47,74.45,9.2,1113.9,0.0,0.0,62.101686666666666,6.896956666666667,2.16
1620474641.532487,1.07,-1.0,-8.47,97.76,13.47,74.45,9.2,1121.2,0.0,0.0,62.101686666666666,6.896956666666667,2.16
1620474641.6092854,1.07,-1.0,-8.64,87.03,13.47,74.45,9.2,1121.2,0.0,0.0,62.101686666666666,6.896978333333334,2.12
1620474641.7020347,1.07,-1.0,-8.64,87.03,13.53,74.8,9.2,1121.2,0.0,0.0,62.101686666666666,6.896978333333334,2.12
1620474641.795871,1.11,-1.0,-8.64,87.03,13.53,74.8,9.2,1121.2,0.0,0.0,62.101686666666666,6.896978333333334,2.12
1620474641.8886237,1.11,-1.0,-8.89,77.58,13.6,74.8,9.2,1121.2,0.0,0.0,62.101686666666666,6.896978333333334,2.12
1620474641.9674118,1.14,-1.0,-8.89,77.58,13.6,75.29,9.2,1128.5,0.0,0.0,62.101686666666666,6.896978333333334,2.12
1620474642.0608065,1.14,-1.0,-9.13,69.23,13.6,75.29,9.2,1128.5,0.0,0.0,62.101686666666666,6.896978333333334,2.12
1620474642.16952,1.14,-1.0,-9.13,69.23,13.67,75.66,9.2,1128.5,0.0,0.0,62.101686666666666,6.896978333333334,2.12
1620474642.2792277,1.2,-1.0,-9.13,69.23,13.67,75.66,9.2,1128.5,0.0,0.0,62.101688333333335,6.897000000000001,2.12
1620474642.3889282,1.2,-1.0,-9.47,83.4,13.79,75.66,9.2,1128.5,0.0,0.0,62.101688333333335,6.897000000000001,2.12
1620474642.4996336,1.2,-1.0,-9.47,83.4,13.79,75.91,9.2,1138.7,0.0,0.0,62.101688333333335,6.897000000000001,2.12
1620474642.6096659,1.25,-1.0,-9.47,83.4,13.79,75.91,9.2,1138.7,0.0,0.0,62.101688333333335,6.897000000000001,2.12
1620474642.7173696,1.25,-1.0,-9.87,95.92,13.91,75.91,9.2,1138.7,0.0,0.0,62.101688333333335,6.897000000000001,2.12
1620474642.8266437,1.32,-1.0,-9.87,95.92,13.91,76.18,9.2,1138.7,0.0,0.0,62.101688333333335,6.897000000000001,2.11
1620474642.9058676,1.32,-1.0,-10.31,127.27,13.91,76.18,9.2,1138.7,0.0,0.0,62.101688333333335,6.897000000000001,2.11
1620474642.997342,1.32,-1.0,-10.31,127.27,14.01,76.49,9.2,1151.0,0.0,0.0,62.101688333333335,6.897000000000001,2.11
1620474643.0921657,1.37,-1.0,-10.31,127.27,14.01,76.49,9.2,1151.0,0.0,0.0,62.101688333333335,6.897000000000001,2.11
1620474643.1859136,1.37,-1.0,-10.75,134.68,14.1,76.49,9.2,1151.0,0.0,0.0,62.101688333333335,6.897000000000001,2.11
1620474643.2627149,1.43,-1.0,-10.75,134.68,14.1,76.87,9.2,1151.0,0.0,0.0,62.101688333333335,6.8970183333333335,2.11
1620474643.3696532,1.43,-1.0,-11.17,134.68,14.1,76.87,9.2,1151.0,0.0,0.0,62.101688333333335,6.8970183333333335,2.11
1620474643.4783583,1.43,-1.0,-11.17,161.52,13.82,77.2,9.2,1151.0,0.0,0.0,62.101688333333335,6.8970183333333335,2.11
1620474643.5713272,1.5,-1.0,-11.17,161.52,13.82,77.2,9.2,1164.0,0.0,0.0,62.101688333333335,6.8970183333333335,2.11
1620474643.665889,1.5,-1.0,-11.49,163.64,13.79,77.2,9.2,1164.0,0.0,0.0,62.101688333333335,6.8970183333333335,2.11
1620474643.7586415,1.57,-1.0,-11.49,163.64,13.79,77.63,9.2,1164.0,0.0,0.0,62.101688333333335,6.8970383333333345,2.1
1620474643.851989,1.57,-1.0,-11.49,163.64,13.79,77.63,9.2,1164.0,0.0,0.0,62.101688333333335,6.8970383333333345,2.1
1620474643.9437332,1.57,-1.0,-11.76,145.23,14.31,77.63,9.2,1164.0,0.0,0.0,62.101688333333335,6.8970383333333345,2.1
1620474644.0366423,1.64,-1.0,-11.76,145.23,14.31,78.01,9.2,1178.8,0.0,0.0,62.101688333333335,6.8970383333333345,2.1
1620474644.1313925,1.64,-1.0,-11.96,129.02,14.31,78.01,9.2,1178.8,0.0,0.0,62.101688333333335,6.8970383333333345,2.1
1620474644.2259705,1.64,-1.0,-11.96,129.02,14.5,78.45,9.2,1178.8,0.0,0.0,62.101688333333335,6.8970383333333345,2.1
1620474644.3191805,1.72,-1.0,-11.96,129.02,14.5,78.45,9.2,1178.8,0.0,0.0,62.101688333333335,6.8970383333333345,2.1
1620474644.4139245,1.72,-1.0,-12.06,114.73,14.58,78.45,9.2,1178.8,0.0,0.0,62.101688333333335,6.8970383333333345,2.1
1620474644.5066772,1.78,-1.0,-12.06,114.73,14.58,78.81,9.2,1193.1,0.0,0.0,62.101688333333335,6.8970383333333345,2.1
1620474644.5984337,1.78,-1.0,-12.06,114.73,14.58,78.81,9.2,1193.1,0.0,0.0,62.101688333333335,6.8970383333333345,2.1
1620474644.7100945,1.78,-1.0,-12.07,102.1,14.61,78.81,9.2,1193.1,0.0,0.0,62.101688333333335,6.8970383333333345,2.1
1620474644.8190668,1.86,-1.0,-12.07,102.1,14.61,79.19,9.2,1193.1,0.0,0.0,62.101688333333335,6.897060000000001,2.1
1620474644.928023,1.86,-1.0,-12.02,90.95,14.61,79.19,9.2,1193.1,0.0,0.0,62.101688333333335,6.897060000000001,2.1
1620474645.0217628,1.86,-1.0,-12.02,90.95,14.6,79.51,9.2,1206.9,0.0,0.0,62.101688333333335,6.897060000000001,2.1
1620474645.1304314,1.92,-1.0,-12.02,90.95,14.6,79.51,9.2,1206.9,0.0,0.0,62.101688333333335,6.897060000000001,2.1
1620474645.239562,1.92,-1.0,-11.94,81.13,14.57,79.51,9.2,1206.9,0.0,0.0,62.101688333333335,6.897060000000001,2.1
1620474645.3343093,2.01,-1.0,-11.94,81.13,14.57,79.81,9.2,1206.9,0.0,0.0,62.101688333333335,6.897060000000001,2.1
1620474645.4280593,2.01,-1.0,-11.94,81.13,14.57,79.81,9.2,1206.9,0.0,0.0,62.101688333333335,6.897060000000001,2.1
1620474645.5372264,2.01,-1.0,-11.81,72.48,14.52,79.81,9.2,1206.9,0.0,0.0,62.101688333333335,6.897060000000001,2.1
1620474645.6432123,2.04,-1.0,-11.81,72.48,14.52,80.17,9.2,1219.2,0.0,0.0,62.101688333333335,6.897060000000001,2.1
1620474645.753648,2.04,-1.0,-11.65,64.84,14.46,80.17,9.2,1219.2,0.0,0.0,62.101688333333335,6.897060000000001,2.1
1620474645.8600528,2.11,-1.0,-11.65,64.84,14.46,80.52,9.2,1219.2,0.0,0.0,62.101688333333335,6.897060000000001,2.1
1620474645.969759,2.11,-1.0,-11.65,64.84,14.46,80.52,9.2,1219.2,0.0,0.0,62.101688333333335,6.897060000000001,2.1
1620474646.0804648,2.11,-1.0,-11.53,58.06,14.39,80.52,9.2,1219.2,0.0,0.0,62.101688333333335,6.897060000000001,2.1
1620474646.1878915,2.17,-1.0,-11.53,58.06,14.39,80.86,9.2,1231.5,0.0,0.0,62.101688333333335,6.897060000000001,2.1
1620474646.281646,2.17,-1.0,-11.48,58.06,14.39,80.86,9.2,1231.5,0.0,0.0,62.101688333333335,6.897060000000001,2.1
1620474646.3894126,2.17,-1.0,-11.48,52.1,14.34,81.09,9.2,1231.5,0.0,0.0,62.101688333333335,6.897078333333333,2.1
1620474646.4984264,2.22,-1.0,-11.48,52.1,14.34,81.09,9.2,1231.5,0.0,0.0,62.101688333333335,6.897078333333333,2.1
1620474646.6057482,2.22,-1.0,-11.48,46.85,14.29,81.09,9.2,1231.5,0.0,0.0,62.101688333333335,6.897078333333333,2.1
1620474646.714457,2.27,-1.0,-11.48,46.85,14.29,81.3,9.2,1241.9,0.0,0.0,62.101688333333335,6.897078333333333,2.1
1620474646.8243399,2.27,-1.0,-11.48,46.85,14.29,81.3,9.2,1241.9,0.0,0.0,62.10168999999999,6.897098333333334,2.1
1620474646.9330182,2.27,-1.0,-11.55,42.21,14.24,81.3,9.2,1241.9,0.0,0.0,62.10168999999999,6.897098333333334,2.1
1620474647.028764,2.35,-1.0,-11.55,42.21,14.24,81.61,9.2,1241.9,0.0,0.0,62.10168999999999,6.897098333333334,2.1
1620474647.134081,2.35,-1.0,-11.73,42.21,14.24,81.61,9.2,1241.9,0.0,0.0,62.10168999999999,6.897098333333334,2.1
1620474647.2279105,2.35,-1.0,-11.73,38.08,14.2,81.89,9.2,1241.9,0.0,0.0,62.10168999999999,6.897098333333334,2.1
1620474647.3226564,2.42,-1.0,-11.73,38.08,14.2,81.89,9.2,1256.8,0.0,0.0,62.10168999999999,6.897098333333334,2.1
1620474647.429077,2.42,-1.0,-12.03,34.44,14.17,81.89,9.2,1256.8,0.0,0.0,62.10168999999999,6.897098333333334,2.1
1620474647.5255535,2.48,-1.0,-12.03,34.44,14.17,82.18,9.2,1256.8,0.0,0.0,62.10168999999999,6.897098333333334,2.1
1620474647.618817,2.48,-1.0,-12.41,31.25,14.17,82.18,9.2,1256.8,0.0,0.0,62.10168999999999,6.897098333333334,2.1
1620474647.7137318,2.48,-1.0,-12.41,31.25,14.13,82.43,9.2,1270.2,0.0,0.0,62.10169166666666,6.897118333333333,2.1
1620474647.8212686,2.55,-1.0,-12.41,31.25,14.13,82.43,9.2,1270.2,0.0,0.0,62.10169166666666,6.897118333333333,2.1
1620474647.9284277,2.55,-1.0,-12.87,28.43,14.07,82.43,9.2,1270.2,0.0,0.0,62.10169166666666,6.897118333333333,2.1
1620474648.0241706,2.63,-1.0,-12.87,28.43,14.07,82.84,9.2,1270.2,0.0,0.0,62.10169166666666,6.897118333333333,2.1
1620474648.1179194,2.63,-1.0,-13.47,25.9,14.07,82.84,9.2,1270.2,0.0,0.0,62.10169166666666,6.897118333333333,2.1
1620474648.2118049,2.63,-1.0,-13.47,25.9,13.98,83.33,9.2,1288.2,0.0,0.0,62.10169166666666,6.897118333333333,2.1
1620474648.304558,2.73,-1.0,-13.47,25.9,13.98,83.33,9.2,1288.2,0.0,0.0,62.10169166666666,6.897118333333333,2.13
1620474648.3974047,2.73,-1.0,-13.98,23.87,13.84,83.33,9.2,1288.2,0.0,0.0,62.10169166666666,6.897118333333333,2.13
1620474648.4931629,2.85,-1.0,-13.98,23.87,13.84,84.27,9.2,1288.2,0.0,0.0,62.10169166666666,6.897118333333333,2.13
1620474648.588943,2.85,-1.0,-14.48,22.38,13.68,84.27,9.2,1288.2,0.0,0.0,62.10169166666666,6.897118333333333,2.13
1620474648.6976597,2.94,-1.0,-14.48,22.38,13.68,86.0,9.2,1310.0,0.0,0.0,62.10169166666666,6.897118333333333,2.13
1620474648.807438,2.94,-1.0,-15.08,21.62,13.51,86.0,9.2,1310.0,0.0,0.0,62.10169166666666,6.897138333333333,2.13
1620474648.9186368,3.04,-1.0,-15.08,21.62,13.51,89.28,9.2,1310.0,0.0,0.0,62.10169166666666,6.897138333333333,2.13
1620474649.0279279,3.04,-1.0,-15.8,21.62,13.51,89.28,9.2,1310.0,0.0,0.0,62.10169166666666,6.897138333333333,2.13
1620474649.1369395,3.04,-1.0,-15.8,21.7,13.39,93.76,9.2,1310.0,0.0,0.0,62.10169166666666,6.897138333333333,2.13
1620474649.243681,3.15,-1.0,-15.8,21.7,13.39,93.76,9.2,1330.6,0.0,0.0,62.10169166666666,6.897138333333333,2.12
1620474649.3384264,3.15,-1.0,-16.62,22.29,13.31,93.76,9.2,1330.6,0.0,0.0,62.10169166666666,6.897138333333333,2.12
1620474649.4301805,3.21,-1.0,-16.62,22.29,13.31,98.17,9.2,1330.6,0.0,0.0,62.10169166666666,6.897138333333333,2.12
1620474649.5249298,3.21,-1.0,-17.53,22.84,13.24,98.17,9.2,1330.6,0.0,0.0,62.10169166666666,6.897138333333333,2.12
1620474649.603118,3.31,-1.0,-17.53,22.84,13.24,102.36,9.2,1346.9,0.0,0.0,62.10169166666666,6.897138333333333,2.12
1620474649.7118254,3.31,-1.0,-18.35,23.12,13.24,102.36,9.2,1346.9,0.0,0.0,62.10169166666666,6.897138333333333,2.12
1620474649.8031893,3.31,-1.0,-18.35,23.12,13.16,106.05,9.2,1346.9,0.0,0.0,62.10169333333333,6.897158333333334,2.12
1620474649.8951387,3.35,-1.0,-18.35,23.12,13.16,106.05,9.2,1346.9,0.0,0.0,62.10169333333333,6.897158333333334,2.12
1620474649.990634,3.35,-1.0,-18.92,22.87,13.16,106.05,9.2,1346.9,0.0,0.0,62.10169333333333,6.897158333333334,2.12
1620474650.083776,3.35,-1.0,-18.92,22.87,13.04,108.68,9.2,1356.6,0.0,0.0,62.10169333333333,6.897158333333334,2.12
1620474650.1791656,3.4,-1.0,-18.92,22.87,13.04,108.68,9.2,1356.6,0.0,0.0,62.10169333333333,6.897158333333334,2.12
1620474650.284006,3.4,-1.0,-19.01,21.88,13.04,108.68,9.2,1356.6,0.0,0.0,62.10169333333333,6.897158333333334,2.15
1620474650.393712,3.4,-1.0,-19.01,21.88,12.88,109.39,9.1,1356.6,0.0,0.0,62.10169333333333,6.897158333333334,2.15
1620474650.5033326,3.45,-1.0,-19.01,21.88,12.88,109.39,9.1,1356.6,0.0,0.0,62.10169333333333,6.897158333333334,2.15
1620474650.5975165,3.45,-1.0,-18.66,20.28,12.66,109.39,9.1,1356.6,0.0,0.0,62.10169333333333,6.897158333333334,2.15
1620474650.7093978,3.47,-1.0,-18.66,20.28,12.66,107.43,9.1,1362.8,0.0,0.0,62.10169333333333,6.897158333333334,2.15
1620474650.800157,3.47,-1.0,-18.02,60.16,15.75,107.43,9.1,1362.8,0.0,0.0,62.10169333333333,6.897158333333334,2.15
1620474650.8942835,3.51,-1.0,-18.02,60.16,15.75,103.12,9.1,1362.8,0.0,0.0,62.10169333333333,6.897158333333334,2.15
1620474650.9867914,3.51,-1.0,-18.02,60.16,15.75,103.12,9.1,1362.8,0.0,0.0,62.10169333333333,6.897158333333334,2.15
1620474651.0980203,3.51,-1.0,-17.35,95.09,16.06,103.12,9.1,1362.8,0.0,0.0,62.10169333333333,6.897158333333334,2.15
1620474651.206291,3.56,-1.0,-17.35,95.09,16.06,97.88,9.1,1372.1,0.0,0.0,62.10169333333333,6.897158333333334,2.15
1620474651.3142436,3.56,-1.0,-16.73,125.83,16.06,97.88,9.1,1372.1,0.0,0.0,62.10169333333333,6.897158333333334,2.15
1620474651.4075646,3.56,-1.0,-16.73,125.83,15.98,92.81,9.1,1372.1,0.0,0.0,62.101695,6.897179999999999,2.14
1620474651.5155773,3.63,-1.0,-16.73,125.83,15.98,92.81,9.1,1372.1,0.0,0.0,62.101695,6.897179999999999,2.14
1620474651.6093247,3.63,-1.0,-15.99,153.13,15.46,92.81,9.1,1372.1,0.0,0.0,62.101695,6.897179999999999,2.14
1620474651.7175808,3.7,-1.0,-15.99,153.13,15.46,87.8,9.1,1386.2,0.0,0.0,62.101695,6.897179999999999,2.14
1620474651.8251996,3.7,-1.0,-15.16,177.38,12.89,87.8,9.1,1386.2,0.0,0.0,62.101695,6.897179999999999,2.14
1620474651.933949,3.73,-1.0,-15.16,177.38,12.89,83.88,9.1,1386.2,0.0,0.0,62.101695,6.8972,2.14
1620474652.0408103,3.73,-1.0,-14.45,-161.06,6.87,83.88,9.1,1386.2,0.0,0.0,62.101695,6.8972,2.14
1620474652.1361718,3.79,-1.0,-14.45,-161.06,6.87,81.31,9.1,1395.1,0.0,0.0,62.101695,6.8972,2.14
1620474652.244433,3.79,-1.0,-13.91,-141.88,6.87,81.31,9.1,1395.1,0.0,0.0,62.101695,6.8972,2.14
1620474652.3391786,3.79,-1.0,-13.91,-141.88,5.34,80.32,9.1,1395.1,0.0,0.0,62.101695,6.8972,2.14
1620474652.4460092,3.81,-1.0,-13.48,-124.78,5.34,80.32,9.1,1395.1,0.0,0.0,62.101695,6.8972,2.14
1620474652.540753,3.81,-1.0,-13.48,-124.78,5.09,80.44,9.1,1395.1,0.0,0.0,62.101695,6.8972,2.14
1620474652.6464727,3.82,-1.0,-13.32,-124.78,5.09,80.44,9.1,1398.8,0.0,0.0,62.101695,6.8972,2.17
1620474652.7422159,3.82,-1.0,-13.32,-131.24,5.2,81.08,9.1,1398.8,0.0,0.0,62.101695,6.8972,2.17
1620474652.8500328,3.86,-1.0,-13.32,-131.24,5.2,81.08,9.1,1398.8,0.0,0.0,62.101695,6.8972,2.17
1620474652.9448216,3.86,-1.0,-13.21,-135.63,5.29,81.08,9.1,1398.8,0.0,0.0,62.101695,6.8972,2.17
1620474653.038148,3.9,-1.0,-13.21,-135.63,5.29,81.65,9.1,1406.9,0.0,0.0,62.101695,6.8972,2.17
1620474653.1299057,3.9,-1.0,-13.24,-161.09,6.79,81.65,9.1,1406.9,0.0,0.0,62.101696666666676,6.897220000000001,2.17
1620474653.2236528,3.94,-1.0,-13.24,-161.09,6.79,82.39,9.0,1406.9,0.0,0.0,62.101696666666676,6.897220000000001,2.17
1620474653.3305533,3.94,-1.0,-13.27,176.45,12.79,82.39,9.0,1406.9,0.0,0.0,62.101696666666676,6.897220000000001,2.17
1620474653.4402497,3.98,-1.0,-13.27,176.45,12.79,82.87,9.0,1414.7,0.0,0.0,62.101696666666676,6.897220000000001,2.17
1620474653.5470788,3.98,-1.0,-13.37,156.55,12.79,82.87,9.0,1414.7,0.0,0.0,62.101696666666676,6.897220000000001,2.17
1620474653.6259232,3.98,-1.0,-13.37,156.55,14.65,83.21,9.0,1414.7,0.0,0.0,62.101696666666676,6.897220000000001,2.15
1620474653.7191844,4.02,-1.0,-13.37,156.55,14.65,83.21,9.0,1414.7,0.0,0.0,62.101696666666676,6.897220000000001,2.15
1620474653.8139327,4.02,-1.0,-13.36,160.55,14.49,83.21,9.0,1414.7,0.0,0.0,62.101696666666676,6.897220000000001,2.15
1620474653.9066842,4.09,-1.0,-13.36,160.55,14.49,83.24,9.0,1425.9,0.0,0.0,62.101696666666676,6.897220000000001,2.15
1620474654.001298,4.09,-1.0,-13.32,184.34,14.49,83.24,9.0,1425.9,0.0,0.0,62.101696666666676,6.897220000000001,2.15
1620474654.0784285,4.09,-1.0,-13.32,184.34,10.53,82.92,9.0,1425.9,0.0,0.0,62.101696666666676,6.897220000000001,2.15
1620474654.18814,4.11,-1.0,-13.24,-154.67,10.53,82.92,9.0,1425.9,0.0,0.0,62.101696666666676,6.897220000000001,2.15
1620474654.2954473,4.11,-1.0,-13.24,-154.67,6.0,82.65,9.0,1432.8,0.0,0.0,62.101696666666676,6.897220000000001,2.15
1620474654.4042082,4.16,-1.0,-13.21,-136.16,6.0,82.65,9.0,1432.8,0.0,0.0,62.101696666666676,6.897220000000001,2.15
1620474654.5139828,4.16,-1.0,-13.21,-136.16,5.25,82.17,9.0,1432.8,0.0,0.0,62.101696666666676,6.897220000000001,2.15
1620474654.6243591,4.2,-1.0,-13.21,-136.16,5.25,82.17,9.0,1432.8,0.0,0.0,62.101698333333324,6.897239999999999,2.17
1620474654.7319615,4.2,-1.0,-13.07,-119.87,5.1,82.17,9.0,1432.8,0.0,0.0,62.101698333333324,6.897239999999999,2.17
1620474654.841734,4.22,-1.0,-13.07,-119.87,5.1,81.28,9.0,1439.3,0.0,0.0,62.101698333333324,6.897239999999999,2.17
1620474654.9516027,4.22,33.53,-13.0,-105.48,5.1,81.28,9.0,1439.3,0.0,0.0,62.101698333333324,6.897239999999999,2.17
1620474655.0603187,4.22,33.53,-13.0,-105.48,5.05,80.48,9.0,1439.3,0.0,0.0,62.101698333333324,6.897239999999999,2.17
1620474655.168027,4.27,33.53,-13.0,-105.48,5.05,80.48,9.0,1439.3,0.0,0.0,62.101698333333324,6.897239999999999,2.17
1620474655.2468138,4.27,-1.0,-13.0,-92.76,5.03,80.48,9.0,1439.3,0.0,0.0,62.1017,6.897261666666666,2.17
1620474655.3405666,4.32,-1.0,-13.0,-92.76,5.03,79.86,9.0,1448.9,0.0,0.0,62.1017,6.897261666666666,2.17
1620474655.4346383,4.32,-1.0,-12.98,-92.76,5.03,79.86,9.0,1448.9,0.0,0.0,62.1017,6.897261666666666,2.17
1620474655.528753,4.32,-1.0,-12.98,-81.49,5.03,79.53,9.0,1448.9,0.0,0.0,62.1017,6.897261666666666,2.17
1620474655.6076653,4.38,-1.0,-12.98,-81.49,5.03,79.53,9.0,1448.9,0.0,0.0,62.1017,6.897261666666666,2.17
1620474655.7169683,4.38,-1.0,-12.99,-71.54,5.03,79.53,9.0,1448.9,0.0,0.0,62.10170166666667,6.897281666666667,2.16
1620474655.8259344,4.38,-1.0,-12.99,-71.54,5.04,79.32,9.0,1459.7,0.0,0.0,62.10170166666667,6.897281666666667,2.16
1620474655.9326484,4.43,-1.0,-12.99,-71.54,5.04,79.32,9.0,1459.7,0.0,0.0,62.10170166666667,6.897281666666667,2.16
1620474656.0419474,4.43,-1.0,-12.9,-62.7,5.09,79.32,9.0,1459.7,0.0,0.0,62.10170166666667,6.897281666666667,2.16
1620474656.1477802,4.49,-1.0,-12.9,-62.7,5.09,79.15,8.9,1459.7,0.0,0.0,62.10170166666667,6.897281666666667,2.16
1620474656.2395911,4.49,-1.0,-12.75,-62.7,5.09,79.15,8.9,1459.7,0.0,0.0,62.10170166666667,6.897281666666667,2.16
1620474656.3486369,4.49,-1.0,-12.75,-54.83,5.16,79.51,8.9,1459.7,0.0,0.0,62.10170166666667,6.897281666666667,2.16
1620474656.4578195,4.54,-1.0,-12.75,-54.83,5.16,79.51,8.9,1470.8,0.0,0.0,62.10170166666667,6.897281666666667,2.16
1620474656.5655308,4.54,-1.0,-12.62,-69.42,5.15,79.51,8.9,1470.8,0.0,0.0,62.10170166666667,6.897281666666667,2.16
1620474656.675237,4.57,-1.0,-12.62,-69.42,5.15,80.06,8.9,1470.8,0.0,0.0,62.10170166666667,6.897281666666667,2.16
1620474656.7842333,4.57,-1.0,-12.52,-102.55,5.18,80.06,8.9,1470.8,0.0,0.0,62.10170166666667,6.897281666666667,2.16
1620474656.8929057,4.63,-1.0,-12.52,-102.55,5.18,80.7,8.9,1479.8,0.0,0.0,62.10170333333334,6.897301666666667,2.15
1620474656.9776816,4.63,-1.0,-12.39,-131.85,5.35,80.7,8.9,1479.8,0.0,0.0,62.10170333333334,6.897301666666667,2.15
1620474657.06252,4.65,-1.0,-12.39,-131.85,5.35,81.43,8.9,1479.8,0.0,0.0,62.10170333333334,6.897301666666667,2.15
1620474657.1560395,4.65,-1.0,-12.33,-157.77,5.35,81.43,8.9,1479.8,0.0,0.0,62.10170333333334,6.897301666666667,2.15
1620474657.2507515,4.65,-1.0,-12.33,-157.77,6.28,81.64,8.9,1485.9,0.0,0.0,62.10170333333334,6.897301666666667,2.15
1620474657.3285425,4.69,-1.0,-12.23,-157.77,6.28,81.64,8.9,1485.9,0.0,0.0,62.10170333333334,6.897301666666667,2.15
1620474657.4235744,4.69,-1.0,-12.23,-138.83,5.49,81.25,8.9,1485.9,0.0,0.0,62.10170333333334,6.897301666666667,2.16
1620474657.5343196,4.72,-1.0,-12.23,-138.83,5.49,81.25,8.9,1485.9,0.0,0.0,62.10170333333334,6.897301666666667,2.16
1620474657.6271698,4.72,-1.0,-12.19,-122.19,5.33,81.25,8.9,1485.9,0.0,0.0,62.10170333333334,6.897301666666667,2.16
1620474657.7211542,4.76,-1.0,-12.19,-122.19,5.33,80.56,8.9,1493.7,0.0,0.0,62.10170333333334,6.897301666666667,2.16
1620474657.8285294,4.76,-1.0,-12.2,-107.51,5.28,80.56,8.9,1493.7,0.0,0.0,62.10170333333334,6.897301666666667,2.16
1620474657.9379504,4.79,-1.0,-12.2,-107.51,5.28,80.07,8.9,1493.7,0.0,0.0,62.10170333333334,6.897301666666667,2.16
1620474658.0494707,4.79,-1.0,-12.19,-94.52,5.27,80.07,8.9,1493.7,0.0,0.0,62.101704999999995,6.897323333333333,2.16
1620474658.1423113,4.83,-1.0,-12.19,-94.52,5.27,79.47,8.9,1500.8,0.0,0.0,62.101704999999995,6.897323333333333,2.16
1620474658.2524042,4.83,-1.0,-12.11,-94.52,5.27,79.47,8.9,1500.8,0.0,0.0,62.101704999999995,6.897323333333333,2.16
1620474658.3620768,4.83,-1.0,-12.11,-83.06,5.29,78.75,8.9,1500.8,0.0,0.0,62.101704999999995,6.897323333333333,2.16
1620474658.472785,4.87,-1.0,-11.9,-83.06,5.29,78.75,8.9,1500.8,0.0,0.0,62.101704999999995,6.897323333333333,2.16
1620474658.5821567,4.87,-1.0,-11.9,-72.89,5.36,78.26,8.9,1500.8,0.0,0.0,62.101704999999995,6.897323333333333,2.16
1620474658.6752946,4.93,1.15,-11.69,-72.89,5.36,78.26,8.9,1510.2,0.0,0.0,62.101704999999995,6.897323333333333,2.16
1620474658.7810512,4.93,1.15,-11.69,-63.86,5.44,77.96,8.9,1510.2,0.0,0.0,62.101704999999995,6.897323333333333,2.16
1620474658.86882,4.96,1.15,-11.69,-63.86,5.44,77.96,8.9,1510.2,0.0,0.0,62.101704999999995,6.897323333333333,2.16
1620474658.9685507,4.96,1.23,-11.61,-55.88,5.49,77.96,8.9,1510.2,0.0,0.0,62.101704999999995,6.897323333333333,2.16
1620474659.0787816,5.0,1.23,-11.61,-55.88,5.49,77.91,8.9,1517.8,0.0,0.0,62.101706666666665,6.897345,2.16
1620474659.1885238,5.0,1.33,-11.53,-48.87,5.55,77.91,8.9,1517.8,0.0,0.0,62.101706666666665,6.897345,2.16
1620474659.297756,5.02,1.33,-11.53,-48.87,5.55,77.63,8.8,1517.8,0.0,0.0,62.101706666666665,6.897345,2.16
1620474659.4070532,5.02,-1.0,-11.44,-42.75,5.55,77.63,8.8,1517.8,0.0,0.0,62.101706666666665,6.897345,2.16
1620474659.500012,5.02,-1.0,-11.44,-42.75,5.62,76.81,8.8,1524.3,0.0,0.0,62.101706666666665,6.897345,2.16
1620474659.6107159,5.07,-1.0,-11.44,-42.75,5.62,76.81,8.8,1524.3,0.0,0.0,62.101706666666665,6.897345,2.16
1620474659.7034721,5.07,-1.0,-11.29,-37.4,5.71,76.81,8.8,1524.3,0.0,0.0,62.101706666666665,6.897345,2.17
1620474659.81175,5.09,-1.0,-11.29,-37.4,5.71,75.65,8.8,1524.3,0.0,0.0,62.101706666666665,6.897345,2.17
1620474659.9224818,5.09,-1.0,-11.21,-32.68,5.79,75.65,8.8,1524.3,0.0,0.0,62.101706666666665,6.897345,2.17
1620474660.030061,5.13,-1.0,-11.21,-32.68,5.79,74.67,8.8,1530.9,0.0,0.0,62.101706666666665,6.897345,2.17
1620474660.1382966,5.13,-1.0,-11.18,-28.55,5.88,74.67,8.8,1530.9,0.0,0.0,62.101706666666665,6.897345,2.17
1620474660.247999,5.16,-1.0,-11.18,-28.55,5.88,73.64,8.8,1530.9,0.0,0.0,62.101706666666665,6.897345,2.17
1620474660.3545516,5.16,-1.0,-11.1,-28.55,5.88,73.64,8.8,1530.9,0.0,0.0,62.101708333333335,6.897366666666667,2.17
1620474660.4638116,5.16,-1.0,-11.1,-24.88,5.98,73.07,8.8,1530.9,0.0,0.0,62.101708333333335,6.897366666666667,2.17
1620474660.572597,5.21,-1.0,-11.07,-24.88,5.98,73.07,8.8,1538.6,0.0,0.0,62.101708333333335,6.897366666666667,2.17
1620474660.6668842,5.21,-1.0,-11.07,-21.55,6.08,72.86,8.8,1538.6,0.0,0.0,62.101708333333335,6.897366666666667,2.17
1620474660.7593255,5.24,-1.0,-11.06,-21.55,6.08,72.86,8.8,1538.6,0.0,0.0,62.101708333333335,6.897366666666667,2.17
1620474660.853439,5.24,-1.0,-11.06,-18.58,6.2,72.92,8.8,1538.6,0.0,0.0,62.101710000000004,6.897388333333334,2.16
1620474660.9601545,5.28,-1.0,-11.06,-18.58,6.2,72.92,8.8,1546.2,0.0,0.0,62.101710000000004,6.897388333333334,2.16
1620474661.052517,5.28,-1.0,-11.01,-15.87,6.33,72.92,8.8,1546.2,0.0,0.0,62.101710000000004,6.897388333333334,2.16
1620474661.1612296,5.32,-1.0,-11.01,-15.87,6.33,73.44,8.8,1546.2,0.0,0.0,62.101710000000004,6.897388333333334,2.16
1620474661.2546434,5.32,-1.0,-11.01,-13.46,6.33,73.44,8.8,1546.2,0.0,0.0,62.101710000000004,6.897388333333334,2.16
1620474661.3473969,5.32,-1.0,-11.01,-13.46,6.48,74.07,8.8,1554.7,0.0,0.0,62.101710000000004,6.897388333333334,2.16
1620474661.4544802,5.37,-1.0,-10.95,-11.32,6.48,74.07,8.8,1554.7,0.0,0.0,62.101710000000004,6.897388333333334,2.16
1620474661.5637898,5.37,-1.0,-10.95,-11.32,6.64,74.44,8.8,1554.7,0.0,0.0,62.101710000000004,6.897388333333334,2.16
1620474661.6731963,5.4,-1.0,-10.85,-9.43,6.64,74.44,8.8,1554.7,0.0,0.0,62.101710000000004,6.897388333333334,2.17
1620474661.782214,5.4,-1.0,-10.85,-9.43,6.82,75.0,8.8,1560.9,0.0,0.0,62.101710000000004,6.897388333333334,2.17
1620474661.8751674,5.43,-1.0,-10.77,-9.43,6.82,75.0,8.8,1560.9,0.0,0.0,62.101710000000004,6.897388333333334,2.17
1620474661.9810164,5.43,-1.0,-10.77,-7.75,7.0,75.35,8.8,1560.9,0.0,0.0,62.101710000000004,6.897388333333334,2.17
1620474662.0908842,5.47,-1.0,-10.79,-7.75,7.0,75.35,8.8,1560.9,0.0,0.0,62.101710000000004,6.897388333333334,2.17
1620474662.1977997,5.47,-1.0,-10.79,-6.33,7.19,75.78,8.8,1560.9,0.0,0.0,62.10171333333333,6.897410000000001,2.18
